"ID","YearStart","YearEnd","Description","LocationAbbr","LocationDesc","DataSource","Class","Topic","Question","Response","Data_Value_Unit","DataValueTypeId","Data_Value_Type","Data_Value","Data_Value_Footnote_Symbol","Data_Value_Footnote","Low_Confidence_Limit","High_Confidence_Limit","Sample_Size","GeoLocation_Lat","GeoLocation_Long","ClassId","TopicId","QuestionId","ResponseId","StratficationCategory1","StratificationCategoryId1","Stratification1","StratificationId1","StratificationCategory2","StratificationCategoryId2","Stratification2","StratificationId2","StratificationCategory3","StratificationCategoryId3","Stratification3","StratificationId3","LocationDisplayOrder","FootnoteSymbol","FootnoteText","URL","FootnoteHeading"
"671","2011","2011","2011","US","National","BRFSS","Obesity / Weight Status","Obesity / Weight Status","Percent of adults aged 18 years and older who have obesity †","","","VALUE","Value","27.4","","","27.2","27.7","470,700","","","OWS","OWS1","Q036","","Total","OVR","Total","OVERALL","","","","","","","","","0","","","",""
"2279","2011","2011","2011","AL","Alabama","BRFSS","Obesity / Weight Status","Obesity / Weight Status","Percent of adults aged 18 years and older who have obesity †","","","VALUE","Value","32.0","","","30.5","33.5","7,304","32.840571122","-86.631860762","OWS","OWS1","Q036","","Total","OVR","Total","OVERALL","","","","","","","","","1","","","",""
"21294","2011","2011","2011","AK","Alaska","BRFSS","Obesity / Weight Status","Obesity / Weight Status","Percent of adults aged 18 years and older who have obesity †","","","VALUE","Value","27.4","","","25.3","29.7","3,336","64.845079957001","-147.722059036","OWS","OWS1","Q036","","Total","OVR","Total","OVERALL","","","","","","","","","2","","","",""
"24644","2011","2011","2011","AZ","Arizona","BRFSS","Obesity / Weight Status","Obesity / Weight Status","Percent of adults aged 18 years and older who have obesity †","","","VALUE","Value","25.1","","","23.0","27.3","6,150","34.86597028","-111.763811277","OWS","OWS1","Q036","","Total","OVR","Total","OVERALL","","","","","","","","","4","","","",""
"13264","2011","2011","2011","AR","Arkansas","BRFSS","Obesity / Weight Status","Obesity / Weight Status","Percent of adults aged 18 years and older who have obesity †","","","VALUE","Value","30.9","","","28.8","33.1","4,527","34.748650124","-92.274490743","OWS","OWS1","Q036","","Total","OVR","Total","OVERALL","","","","","","","","","5","","","",""
"26780","2011","2011","2011","CA","California","BRFSS","Obesity / Weight Status","Obesity / Weight Status","Percent of adults aged 18 years and older who have obesity †","","","VALUE","Value","23.8","","","22.9","24.7","17,088","37.638640123","-120.999999538","OWS","OWS1","Q036","","Total","OVR","Total","OVERALL","","","","","","","","","6","","","",""
"21908","2011","2011","2011","CO","Colorado","BRFSS","Obesity / Weight Status","Obesity / Weight Status","Percent of adults aged 18 years and older who have obesity †","","","VALUE","Value","20.7","","","19.7","21.8","12,976","38.843840757","-106.133610921","OWS","OWS1","Q036","","Total","OVR","Total","OVERALL","","","","","","","","","8","","","",""
"36642","2011","2011","2011","CT","Connecticut","BRFSS","Obesity / Weight Status","Obesity / Weight Status","Percent of adults aged 18 years and older who have obesity †","","","VALUE","Value","24.5","","","23.0","26.0","6,457","41.56266102","-72.649840952","OWS","OWS1","Q036","","Total","OVR","Total","OVERALL","","","","","","","","","9","","","",""
"8600","2011","2011","2011","DE","Delaware","BRFSS","Obesity / Weight Status","Obesity / Weight Status","Percent of adults aged 18 years and older who have obesity †","","","VALUE","Value","28.8","","","26.9","30.7","4,530","39.008830667","-75.577741168","OWS","OWS1","Q036","","Total","OVR","Total","OVERALL","","","","","","","","","10","","","",""
"27392","2011","2011","2011","DC","District of Columbia","BRFSS","Obesity / Weight Status","Obesity / Weight Status","Percent of adults aged 18 years and older who have obesity †","","","VALUE","Value","23.7","","","21.9","25.7","4,368","38.890371385","-77.031961127","OWS","OWS1","Q036","","Total","OVR","Total","OVERALL","","","","","","","","","11","","","",""
"16906","2011","2011","2011","FL","Florida","BRFSS","Obesity / Weight Status","Obesity / Weight Status","Percent of adults aged 18 years and older who have obesity †","","","VALUE","Value","26.6","","","25.4","27.9","11,770","28.932040377","-81.928960539","OWS","OWS1","Q036","","Total","OVR","Total","OVERALL","","","","","","","","","12","","","",""
"22677","2011","2011","2011","GA","Georgia","BRFSS","Obesity / Weight Status","Obesity / Weight Status","Percent of adults aged 18 years and older who have obesity †","","","VALUE","Value","28.0","","","26.6","29.4","9,353","32.839681093","-83.627580346","OWS","OWS1","Q036","","Total","OVR","Total","OVERALL","","","","","","","","","13","","","",""
"33148","2011","2011","2011","HI","Hawaii","BRFSS","Obesity / Weight Status","Obesity / Weight Status","Percent of adults aged 18 years and older who have obesity †","","","VALUE","Value","21.8","","","20.4","23.4","7,407","21.304850435","-157.857749403","OWS","OWS1","Q036","","Total","OVR","Total","OVERALL","","","","","","","","","15","","","",""
"7081","2011","2011","2011","ID","Idaho","BRFSS","Obesity / Weight Status","Obesity / Weight Status","Percent of adults aged 18 years and older who have obesity †","","","VALUE","Value","27.0","","","25.3","28.9","5,739","43.682630005","-114.363730042","OWS","OWS1","Q036","","Total","OVR","Total","OVERALL","","","","","","","","","16","","","",""
"21933","2011","2011","2011","IL","Illinois","BRFSS","Obesity / Weight Status","Obesity / Weight Status","Percent of adults aged 18 years and older who have obesity †","","","VALUE","Value","27.1","","","25.4","28.9","5,355","40.485010283","-88.997710178","OWS","OWS1","Q036","","Total","OVR","Total","OVERALL","","","","","","","","","17","","","",""
"9566","2011","2011","2011","IN","Indiana","BRFSS","Obesity / Weight Status","Obesity / Weight Status","Percent of adults aged 18 years and older who have obesity †","","","VALUE","Value","30.8","","","29.5","32.3","8,048","39.766910452","-86.149960194","OWS","OWS1","Q036","","Total","OVR","Total","OVERALL","","","","","","","","","18","","","",""
"25608","2011","2011","2011","IA","Iowa","BRFSS","Obesity / Weight Status","Obesity / Weight Status","Percent of adults aged 18 years and older who have obesity †","","","VALUE","Value","29.0","","","27.6","30.3","6,898","42.469400913","-93.816490556","OWS","OWS1","Q036","","Total","OVR","Total","OVERALL","","","","","","","","","19","","","",""
"31921","2011","2011","2011","KS","Kansas","BRFSS","Obesity / Weight Status","Obesity / Weight Status","Percent of adults aged 18 years and older who have obesity †","","","VALUE","Value","29.6","","","28.7","30.4","19,619","38.3477403","-98.200781227","OWS","OWS1","Q036","","Total","OVR","Total","OVERALL","","","","","","","","","20","","","",""
"29505","2011","2011","2011","KY","Kentucky","BRFSS","Obesity / Weight Status","Obesity / Weight Status","Percent of adults aged 18 years and older who have obesity †","","","VALUE","Value","30.4","","","28.9","31.9","10,114","37.645970271","-84.774971048","OWS","OWS1","Q036","","Total","OVR","Total","OVERALL","","","","","","","","","21","","","",""
"34571","2011","2011","2011","LA","Louisiana","BRFSS","Obesity / Weight Status","Obesity / Weight Status","Percent of adults aged 18 years and older who have obesity †","","","VALUE","Value","33.4","","","32.0","34.9","10,404","31.312660644","-92.445680071","OWS","OWS1","Q036","","Total","OVR","Total","OVERALL","","","","","","","","","22","","","",""
"19185","2011","2011","2011","ME","Maine","BRFSS","Obesity / Weight Status","Obesity / Weight Status","Percent of adults aged 18 years and older who have obesity †","","","VALUE","Value","27.8","","","26.8","28.9","12,643","45.254228894001","-68.985031336","OWS","OWS1","Q036","","Total","OVR","Total","OVERALL","","","","","","","","","23","","","",""
"2617","2011","2011","2011","MD","Maryland","BRFSS","Obesity / Weight Status","Obesity / Weight Status","Percent of adults aged 18 years and older who have obesity †","","","VALUE","Value","28.3","","","26.9","29.7","9,450","39.290580964","-76.609260111","OWS","OWS1","Q036","","Total","OVR","Total","OVERALL","","","","","","","","","24","","","",""
"22132","2011","2011","2011","MA","Massachusetts","BRFSS","Obesity / Weight Status","Obesity / Weight Status","Percent of adults aged 18 years and older who have obesity †","","","VALUE","Value","22.7","","","21.8","23.7","20,532","42.27687047","-72.082690675","OWS","OWS1","Q036","","Total","OVR","Total","OVERALL","","","","","","","","","25","","","",""
"3937","2011","2011","2011","MI","Michigan","BRFSS","Obesity / Weight Status","Obesity / Weight Status","Percent of adults aged 18 years and older who have obesity †","","","VALUE","Value","31.3","","","30.0","32.6","10,579","44.661319543001","-84.71439027","OWS","OWS1","Q036","","Total","OVR","Total","OVERALL","","","","","","","","","26","","","",""
"11295","2011","2011","2011","MN","Minnesota","BRFSS","Obesity / Weight Status","Obesity / Weight Status","Percent of adults aged 18 years and older who have obesity †","","","VALUE","Value","25.7","","","24.6","26.8","14,387","46.355648736","-94.794200503","OWS","OWS1","Q036","","Total","OVR","Total","OVERALL","","","","","","","","","27","","","",""
"30811","2011","2011","2011","MS","Mississippi","BRFSS","Obesity / Weight Status","Obesity / Weight Status","Percent of adults aged 18 years and older who have obesity †","","","VALUE","Value","34.9","","","33.5","36.3","8,504","32.745510099","-89.538030825","OWS","OWS1","Q036","","Total","OVR","Total","OVERALL","","","","","","","","","28","","","",""
"39115","2011","2011","2011","MO","Missouri","BRFSS","Obesity / Weight Status","Obesity / Weight Status","Percent of adults aged 18 years and older who have obesity †","","","VALUE","Value","30.3","","","28.6","32.0","6,095","38.635790776","-92.566300053","OWS","OWS1","Q036","","Total","OVR","Total","OVERALL","","","","","","","","","29","","","",""
"35295","2011","2011","2011","MT","Montana","BRFSS","Obesity / Weight Status","Obesity / Weight Status","Percent of adults aged 18 years and older who have obesity †","","","VALUE","Value","24.6","","","23.3","26.0","9,882","47.066528972","-109.424420645","OWS","OWS1","Q036","","Total","OVR","Total","OVERALL","","","","","","","","","30","","","",""
"7583","2011","2011","2011","NE","Nebraska","BRFSS","Obesity / Weight Status","Obesity / Weight Status","Percent of adults aged 18 years and older who have obesity †","","","VALUE","Value","28.4","","","27.6","29.2","24,366","41.641040988001","-99.365720623","OWS","OWS1","Q036","","Total","OVR","Total","OVERALL","","","","","","","","","31","","","",""
"20551","2011","2011","2011","NV","Nevada","BRFSS","Obesity / Weight Status","Obesity / Weight Status","Percent of adults aged 18 years and older who have obesity †","","","VALUE","Value","24.5","","","22.5","26.6","5,205","39.49324039","-117.071840564","OWS","OWS1","Q036","","Total","OVR","Total","OVERALL","","","","","","","","","32","","","",""
"32746","2011","2011","2011","NH","New Hampshire","BRFSS","Obesity / Weight Status","Obesity / Weight Status","Percent of adults aged 18 years and older who have obesity †","","","VALUE","Value","26.2","","","24.7","27.7","6,049","43.655950113","-71.50036092","OWS","OWS1","Q036","","Total","OVR","Total","OVERALL","","","","","","","","","33","","","",""
"25331","2011","2011","2011","NJ","New Jersey","BRFSS","Obesity / Weight Status","Obesity / Weight Status","Percent of adults aged 18 years and older who have obesity †","","","VALUE","Value","23.7","","","22.7","24.8","14,130","40.130570048","-74.273691288","OWS","OWS1","Q036","","Total","OVR","Total","OVERALL","","","","","","","","","34","","","",""
"34472","2011","2011","2011","NM","New Mexico","BRFSS","Obesity / Weight Status","Obesity / Weight Status","Percent of adults aged 18 years and older who have obesity †","","","VALUE","Value","26.3","","","25.1","27.6","8,981","34.520880952","-106.240580985","OWS","OWS1","Q036","","Total","OVR","Total","OVERALL","","","","","","","","","35","","","",""
"10456","2011","2011","2011","NY","New York","BRFSS","Obesity / Weight Status","Obesity / Weight Status","Percent of adults aged 18 years and older who have obesity †","","","VALUE","Value","24.5","","","23.2","25.9","7,222","42.827001032","-75.543970427","OWS","OWS1","Q036","","Total","OVR","Total","OVERALL","","","","","","","","","36","","","",""
"26625","2011","2011","2011","NC","North Carolina","BRFSS","Obesity / Weight Status","Obesity / Weight Status","Percent of adults aged 18 years and older who have obesity †","","","VALUE","Value","29.1","","","27.7","30.6","10,790","35.466220975","-79.159250463","OWS","OWS1","Q036","","Total","OVR","Total","OVERALL","","","","","","","","","37","","","",""
"19329","2011","2011","2011","ND","North Dakota","BRFSS","Obesity / Weight Status","Obesity / Weight Status","Percent of adults aged 18 years and older who have obesity †","","","VALUE","Value","27.8","","","26.3","29.4","4,982","47.475319779","-100.118421049","OWS","OWS1","Q036","","Total","OVR","Total","OVERALL","","","","","","","","","38","","","",""
"30170","2011","2011","2011","OH","Ohio","BRFSS","Obesity / Weight Status","Obesity / Weight Status","Percent of adults aged 18 years and older who have obesity †","","","VALUE","Value","29.6","","","28.3","31.0","9,339","40.060210141","-82.404260056","OWS","OWS1","Q036","","Total","OVR","Total","OVERALL","","","","","","","","","39","","","",""
"26863","2011","2011","2011","OK","Oklahoma","BRFSS","Obesity / Weight Status","Obesity / Weight Status","Percent of adults aged 18 years and older who have obesity †","","","VALUE","Value","31.1","","","29.7","32.5","8,159","35.472031356","-97.521070214","OWS","OWS1","Q036","","Total","OVR","Total","OVERALL","","","","","","","","","40","","","",""
"20839","2011","2011","2011","OR","Oregon","BRFSS","Obesity / Weight Status","Obesity / Weight Status","Percent of adults aged 18 years and older who have obesity †","","","VALUE","Value","26.7","","","25.2","28.3","5,959","44.567449424","-120.155031326","OWS","OWS1","Q036","","Total","OVR","Total","OVERALL","","","","","","","","","41","","","",""
"35151","2011","2011","2011","PA","Pennsylvania","BRFSS","Obesity / Weight Status","Obesity / Weight Status","Percent of adults aged 18 years and older who have obesity †","","","VALUE","Value","28.6","","","27.3","29.8","10,850","40.793730152","-77.860700294","OWS","OWS1","Q036","","Total","OVR","Total","OVERALL","","","","","","","","","42","","","",""
"4410","2011","2011","2011","RI","Rhode Island","BRFSS","Obesity / Weight Status","Obesity / Weight Status","Percent of adults aged 18 years and older who have obesity †","","","VALUE","Value","25.4","","","23.9","27.0","6,182","41.708280193","-71.522470314","OWS","OWS1","Q036","","Total","OVR","Total","OVERALL","","","","","","","","","44","","","",""
"12150","2011","2011","2011","SC","South Carolina","BRFSS","Obesity / Weight Status","Obesity / Weight Status","Percent of adults aged 18 years and older who have obesity †","","","VALUE","Value","30.8","","","29.6","32.1","12,352","33.998821303","-81.045371207","OWS","OWS1","Q036","","Total","OVR","Total","OVERALL","","","","","","","","","45","","","",""
"7416","2011","2011","2011","SD","South Dakota","BRFSS","Obesity / Weight Status","Obesity / Weight Status","Percent of adults aged 18 years and older who have obesity †","","","VALUE","Value","28.1","","","26.3","30.1","7,820","44.353130053","-100.373530637","OWS","OWS1","Q036","","Total","OVR","Total","OVERALL","","","","","","","","","46","","","",""
"3871","2011","2011","2011","TN","Tennessee","BRFSS","Obesity / Weight Status","Obesity / Weight Status","Percent of adults aged 18 years and older who have obesity †","","","VALUE","Value","29.2","","","26.8","31.7","5,575","35.68094058","-85.774490914","OWS","OWS1","Q036","","Total","OVR","Total","OVERALL","","","","","","","","","47","","","",""
"33109","2011","2011","2011","TX","Texas","BRFSS","Obesity / Weight Status","Obesity / Weight Status","Percent of adults aged 18 years and older who have obesity †","","","VALUE","Value","30.4","","","29.1","31.8","14,024","31.827240407","-99.426770206","OWS","OWS1","Q036","","Total","OVR","Total","OVERALL","","","","","","","","","48","","","",""
"36617","2011","2011","2011","UT","Utah","BRFSS","Obesity / Weight Status","Obesity / Weight Status","Percent of adults aged 18 years and older who have obesity †","","","VALUE","Value","24.4","","","23.4","25.5","11,918","39.360700171","-111.587130635","OWS","OWS1","Q036","","Total","OVR","Total","OVERALL","","","","","","","","","49","","","",""
"12465","2011","2011","2011","VT","Vermont","BRFSS","Obesity / Weight Status","Obesity / Weight Status","Percent of adults aged 18 years and older who have obesity †","","","VALUE","Value","25.4","","","24.1","26.8","6,771","43.625381239","-72.517640791","OWS","OWS1","Q036","","Total","OVR","Total","OVERALL","","","","","","","","","50","","","",""
"23634","2011","2011","2011","VA","Virginia","BRFSS","Obesity / Weight Status","Obesity / Weight Status","Percent of adults aged 18 years and older who have obesity †","","","VALUE","Value","29.2","","","27.5","30.9","6,151","37.542680674","-78.457890463","OWS","OWS1","Q036","","Total","OVR","Total","OVERALL","","","","","","","","","51","","","",""
"5904","2011","2011","2011","WA","Washington","BRFSS","Obesity / Weight Status","Obesity / Weight Status","Percent of adults aged 18 years and older who have obesity †","","","VALUE","Value","26.5","","","25.3","27.7","13,896","47.522278629","-120.47001079","OWS","OWS1","Q036","","Total","OVR","Total","OVERALL","","","","","","","","","53","","","",""
"33119","2011","2011","2011","WV","West Virginia","BRFSS","Obesity / Weight Status","Obesity / Weight Status","Percent of adults aged 18 years and older who have obesity †","","","VALUE","Value","32.4","","","30.9","34.0","4,958","38.665510202","-80.712640135","OWS","OWS1","Q036","","Total","OVR","Total","OVERALL","","","","","","","","","54","","","",""
"13960","2011","2011","2011","WI","Wisconsin","BRFSS","Obesity / Weight Status","Obesity / Weight Status","Percent of adults aged 18 years and older who have obesity †","","","VALUE","Value","27.7","","","25.8","29.7","4,941","44.393191174","-89.816370742","OWS","OWS1","Q036","","Total","OVR","Total","OVERALL","","","","","","","","","55","","","",""
"7665","2011","2011","2011","WY","Wyoming","BRFSS","Obesity / Weight Status","Obesity / Weight Status","Percent of adults aged 18 years and older who have obesity †","","","VALUE","Value","25.0","","","23.5","26.6","6,565","43.235541343","-108.109830353","OWS","OWS1","Q036","","Total","OVR","Total","OVERALL","","","","","","","","","56","","","",""
"","","","","","","","","","","","","","","","","","","","","","","","","","","","","","","","","","","","","","","","†","Obesity is defined as body mass index (BMI) =30.0; BMI was calculated from self-reported weight and height (weight [kg]/ height [m²). Respondents reporting weight< 50 pounds or =650 pounds; height< 3 feet or =8 feet; or BMI:<12 or =100 were excluded. Pregnant respondents were also excluded.","","Footnote"
"","","","","","","","","","","","","","","","","","","","","","","","","","","","","","","","","","","","","","","","","Behavioral Risk Factor Surveillance System (BRFSS) - http://www.cdc.gov/brfss/","https://www.cdc.gov/brfss/","Data Source"
"","","","","","","","","","","","","","","","","","","","","","","","","","","","","","","","","","","","","","","","","Centers for Disease Control and Prevention. National Center for Chronic Disease Prevention and Health Promotion, Division of Nutrition, Physical Activity, and Obesity. Data, Trend and Maps [online].","/nccdphp/dnpao/data-trends-maps/index.html","Suggested Citation"
"","","","","","","","","","","","","","","","","","","","","","","","","","","","","","","","","","","","","","","","","Breastfeeding","/breastfeeding/index.htm","Related Links"
"","","","","","","","","","","","","","","","","","","","","","","","","","","","","","","","","","","","","","","","","Division of Nutrition, Physical Activity, and Obesity","/nccdphp/dnpao/index.html","Related Links"
"","","","","","","","","","","","","","","","","","","","","","","","","","","","","","","","","","","","","","","","","Physical Activity","/physicalactivity/index.html","Related Links"
"","","","","","","","","","","","","","","","","","","","","","","","","","","","","","","","","","","","","","","","","Chronic Disease Prevention and Health Promotion","/chronicdisease/index.htm","Related Links"
"","","","","","","","","","","","","","","","","","","","","","","","","","","","","","","","","","","","","","","","","Overweight and Obesity","/obesity/index.html","Related Links"
"","","","","","","","","","","","","","","","","","","","","","","","","","","","","","","","","","","","","","","","","State and Local Programs","/nccdphp/dnpao/state-local-programs/index.html","Related Links"
